{
    "type": "FeatureCollection",
    "features": [
        {
            "type": "Feature",
            "properties": {
                "name": "Сокальська ВЕС",
                "radius": 2,
                "height": 130.0,
                "owner": ""
            },
            "geometry": {
                "type": "Point",
                "coordinates": [
                    24.157991,
                    50.443404
                ]
            }
        },
	{
            "type": "Feature",
            "properties": {
                "name": "Карпатська ВЕС",
                "radius": 3,
                "height": 130.0,
                "owner": ""
            },
            "geometry": {
                "type": "Point",
                "coordinates": [
                    23.032837,
                    49.107815 
                ]
            }
        },
	{
            "type": "Feature",
            "properties": {
                "name": "ТОВ ВІТРОПАРК ЗАХІДНИЙ",
                "radius": 12,
                "height": 130.0,
                "owner": ""
            },
            "geometry": {
                "type": "Point",
                "coordinates": [
                    25.339617950521497,
                    50.03273808952616 
                ]
            }
        },
	{
            "type": "Feature",
            "properties": {
                "name": "Енергопарк Белз",
                "radius": "3",
                "height": 130.0,
                "owner": ""
            },
            "geometry": {
                "type": "Point",
                "coordinates": [
                    24.115908,
                    50.354230 
                ]
            }
        },
	{
            "type": "Feature",
            "properties": {
                "name": "Миролюбне",
                "radius": "2",
                "height": 130.0,
                "owner": ""
            },
            "geometry": {
                "type": "Point",
                "coordinates": [
                    27.18534,
                    49.67095 
                ]
            }
        },
	{
            "type": "Feature",
            "properties": {
                "name": "Вовковиці",
                "radius": "2",
                "height": 130.0,
                "owner": ""
            },
            "geometry": {
                "type": "Point",
                "coordinates": [
                    27.66196,
                    49.18102 
                ]
            }
        },
	{
            "type": "Feature",
            "properties": {
                "name": "ТОВ ЕКО-ОПТІМА",
                "radius": "1",
                "height": 130.0,
                "owner": ""
            },
            "geometry": {		
                "type": "Point",
                "coordinates": [
                    23.01964,
                    49.43024 
                ]
            }
        },
	{
            "type": "Feature",
            "properties": {
                "name": "ТзОВ ВОЛИНЬ ВЕСТ ВІНД 1-3",
                "radius": "8",
                "height": 130.0,
                "owner": ""
            },
            "geometry": {
                "type": "Point",
                "coordinates": [
                    24.84129,
                    50.78042 
                ]
            }
        },
	{
            "type": "Feature",
            "properties": {
                "name": "ТОВ Захід Вітер",
                "radius": "4",
                "height": 130.0,
                "owner": ""
            },
            "geometry": {
                "type": "Point",
                "coordinates": [		
                    24.40570,
                    50.50667 
                ]
            }
        }
    ]
}
